City,Lat,Lng,Max Temp,Humidity,Cloudiness,Wind Speed,Country,Date
Punta Arenas,-53.15,-70.9167,6.06,87,75,5.66,CL,1627422196
Faanui,-16.4833,-151.75,25.57,74,25,3.44,PF,1627422196
Ponta do Sol,32.6667,-17.1,23.34,71,8,2.77,PT,1627422197
Hilo,19.7297,-155.09,25.85,78,90,3.6,US,1627422197
Bethel,41.3712,-73.414,31.64,57,20,0.45,US,1627422197
Busselton,-33.65,115.3333,7.25,68,100,6.04,AU,1627422157
Ushuaia,-54.8,-68.3,2.81,93,90,3.6,AR,1627422198
Berbera,10.4396,45.0143,32.17,39,100,10.53,SO,1627422198
Umm Kaddadah,13.6017,26.6876,28.96,53,84,4.64,SD,1627422198
Longyearbyen,78.2186,15.6401,6.22,97,100,0.49,SJ,1627422199
Xining,36.6167,101.7667,10.48,73,52,0.97,CN,1627422199
Khatanga,71.9667,102.5,24.23,57,99,7.12,RU,1627422199
Kemijärvi,66.7131,27.4306,15.72,74,27,2.68,FI,1627422200
Mar del Plata,-38.0023,-57.5575,8.4,67,75,4.47,AR,1627422105
Kuopio,62.8924,27.677,20.97,68,0,1.03,FI,1627422201
Mossamedes,-15.1961,12.1522,18.87,82,69,1.02,AO,1627422201
Mataura,-46.1927,168.8643,9.15,88,40,0.34,NZ,1627421906
Dumbéa,-22.15,166.45,21.1,99,38,4.01,NC,1627422202
New Norfolk,-42.7826,147.0587,12.72,79,93,0.89,AU,1627422190
George Town,5.4112,100.3354,28.27,83,20,0.89,MY,1627422202
Mount Isa,-20.7333,139.5,8.87,66,89,0.0,AU,1627422202
Butaritari,3.0707,172.7902,27.62,70,98,1.56,KI,1627421930
Sur,22.5667,59.5289,34.49,47,100,8.79,OM,1627422203
Puerto Ayora,-0.7393,-90.3518,25.98,71,12,5.27,EC,1627422183
Los Llanos de Aridane,28.6585,-17.9182,20.86,92,75,7.2,ES,1627422203
Faya,18.3851,42.4509,19.29,77,26,2.23,SA,1627422204
Atuona,-9.8,-139.0333,25.28,71,16,8.24,PF,1627422204
Tasiilaq,65.6145,-37.6368,6.09,78,33,3.42,GL,1627422204
Esim,4.8699,-2.2405,24.39,81,99,3.51,GH,1627422204
Lagoa,39.05,-27.9833,21.83,85,100,4.8,PT,1627422190
Airai,-8.9266,125.4092,13.62,67,55,1.33,TL,1627422205
Nikolskoye,59.7035,30.7861,20.94,62,89,2.25,RU,1627422204
Thompson,55.7435,-97.8558,25.09,47,75,3.6,CA,1627422029
Montefiascone,42.5393,12.0362,21.08,90,37,1.25,IT,1627422205
Cabo San Lucas,22.8909,-109.9124,37.67,67,47,5.27,MX,1627422206
Ribeira Grande,38.5167,-28.7,22.38,84,75,4.87,PT,1627422145
Husavik,66.0449,-17.3389,9.95,99,100,4.25,IS,1627422206
Kununurra,-15.7667,128.7333,17.99,88,8,0.0,AU,1627422206
Marawi,7.9986,124.2928,20.92,86,100,2.92,PH,1627421991
Jamestown,42.097,-79.2353,26.8,62,75,3.13,US,1627421968
Avarua,-21.2078,-159.775,25.03,65,99,3.09,CK,1627422207
Port-Gentil,-0.7193,8.7815,23.98,83,20,2.57,GA,1627422207
Gravdal,68.1214,13.5031,12.94,100,0,2.06,NO,1627422207
Albany,42.6001,-73.9662,26.92,71,51,6.94,US,1627421910
Cape Town,-33.9258,18.4232,13.27,85,20,1.34,ZA,1627422155
Rikitea,-23.1203,-134.9692,23.68,77,100,6.71,PF,1627422208
Auki,-8.7676,160.7034,27.29,76,72,2.19,SB,1627422208
Hobart,-42.8794,147.3294,12.92,81,75,2.24,AU,1627422138
Bluff,-46.6,168.3333,9.33,70,17,6.96,NZ,1627422134
Esperance,-33.8667,121.9,6.91,81,33,6.7,AU,1627422208
Aquiraz,-3.9014,-38.3911,27.05,84,9,3.9,BR,1627422209
Cherskiy,68.75,161.3,3.15,80,100,8.12,RU,1627422014
Doha,25.2867,51.5333,35.99,57,0,2.06,QA,1627422209
Barrow,71.2906,-156.7887,6.01,84,90,7.72,US,1627422209
Bredasdorp,-34.5322,20.0403,12.93,82,100,7.2,ZA,1627422209
Warri,5.5167,5.75,23.5,85,96,1.44,NG,1627422210
Oistins,13.0667,-59.5333,28.05,69,20,8.23,BB,1627422210
Guerrero Negro,27.9769,-114.0611,27.36,50,0,6.67,MX,1627422210
Vaini,-21.2,-175.2,20.09,94,75,3.6,TO,1627422192
Ambilobe,-13.2,49.05,18.78,85,14,1.41,MG,1627422211
Kyzyl-Suu,42.3414,78.0056,18.75,54,62,1.27,KG,1627422211
Taoudenni,22.6783,-3.9836,40.22,6,45,4.64,ML,1627422040
Hamilton,39.1834,-84.5333,32.9,49,1,0.45,US,1627422211
Castro,-24.7911,-50.0119,10.06,94,100,4.69,BR,1627422212
Ilulissat,69.2167,-51.1,11.01,66,100,2.57,GL,1627421955
Fairbanks,64.8378,-147.7164,18.67,65,90,1.34,US,1627422129
Leningradskiy,69.3833,178.4167,1.31,97,100,3.43,RU,1627422212
Hermanus,-34.4187,19.2345,13.22,76,94,8.16,ZA,1627422212
Galle,6.0367,80.217,26.37,87,100,5.59,LK,1627422212
Eureka,40.8021,-124.1637,17.18,91,100,0.89,US,1627422050
Geraldton,-28.7667,114.6,16.74,87,75,1.03,AU,1627422213
Saint-Philippe,-21.3585,55.7679,19.77,85,50,6.35,RE,1627422213
Kuçovë,40.8003,19.9167,26.87,37,0,2.12,AL,1627422213
Roswell,34.0232,-84.3616,31.88,73,75,0.89,US,1627421964
Ancud,-41.8697,-73.8203,9.74,79,97,0.95,CL,1627422176
Saint-Augustin,51.226,-58.6502,16.8,93,99,3.74,CA,1627422214
Port Lincoln,-34.7333,135.8667,11.54,66,5,11.53,AU,1627422214
Coruripe,-10.1256,-36.1756,23.09,87,53,2.93,BR,1627422214
Arraial do Cabo,-22.9661,-42.0278,26.98,83,0,2.57,BR,1627421978
Hithadhoo,-0.6,73.0833,27.17,78,96,3.45,MV,1627422215
Chernyshevskiy,63.0128,112.4714,20.81,65,8,0.92,RU,1627422215
Mackay,-21.15,149.2,16.14,88,90,3.09,AU,1627422215
Dehlorān,32.6941,47.2679,39.38,12,0,4.1,IR,1627422216
Yellowknife,62.456,-114.3525,15.18,51,75,1.34,CA,1627422021
Mehamn,71.0357,27.8492,7.85,91,44,3.22,NO,1627422216
Lebu,-37.6167,-73.65,8.88,76,0,10.79,CL,1627422216
Jijiga,9.35,42.8,16.44,77,100,8.37,ET,1627422217
Karratha,-20.7377,116.8463,20.1,73,4,2.76,AU,1627422217
Aklavik,68.2191,-135.0107,16.46,77,90,1.03,CA,1627422217
Sibolga,1.7427,98.7792,24.51,91,38,1.11,ID,1627422217
Kruisfontein,-34.0033,24.7314,13.27,94,5,3.1,ZA,1627422218
Villamontes,-21.25,-63.5,14.4,34,18,2.22,BO,1627422218
Kavieng,-2.5744,150.7967,29.01,72,15,4.96,PG,1627422218
Pisco,-13.7,-76.2167,20.03,68,0,6.69,PE,1627422218
Neepawa,50.2289,-99.4664,30.22,20,29,3.37,CA,1627422219
Riyadh,24.6877,46.7219,42.08,12,69,5.17,SA,1627421581
Souillac,-20.5167,57.5167,20.21,94,75,6.17,MU,1627422219
Nogliki,51.8333,143.1667,18.42,94,100,2.39,RU,1627422219
Verkhoyansk,67.5447,133.385,11.38,55,2,5.19,RU,1627422220
Didam,51.9372,6.1276,17.83,91,100,4.41,NL,1627422220
Kangaatsiaq,68.3065,-53.4641,8.28,74,100,8.23,GL,1627422220
Saqqez,36.2499,46.2735,24.57,26,5,1.24,IR,1627422220
Severo-Kuril'sk,50.6789,156.125,14.18,96,100,2.18,RU,1627422221
Narsaq,60.9167,-46.05,11.12,68,57,2.63,GL,1627422221
Clyde River,70.4692,-68.5914,12.13,66,75,5.14,CA,1627422221
Jinchang,38.4953,102.1739,21.74,32,78,3.82,CN,1627422194
Daund,18.4667,74.6,23.82,78,100,5.75,IN,1627422222
Coyhaique,-45.5752,-72.0662,7.34,65,0,2.06,CL,1627422222
Coffeyville,37.0373,-95.6164,36.42,50,75,2.57,US,1627422222
Beloha,-25.1667,45.05,16.31,78,0,6.04,MG,1627422223
Grand Baie,-20.0182,57.5802,20.26,90,62,1.34,MU,1627422223
Deputatsky,69.3,139.9,3.8,81,93,1.87,RU,1627422223
Ust'-Uda,54.1742,103.0304,16.01,68,4,0.55,RU,1627422223
Tiksi,71.6872,128.8694,3.79,88,51,3.91,RU,1627422224
Fruitvale,39.0817,-108.4968,34.46,30,1,1.79,US,1627422224
Safaga,26.7292,33.9365,32.97,37,1,5.81,EG,1627422224
Northam,51.0333,-4.2167,16.83,93,48,5.39,GB,1627422224
Ampanihy,-24.7,44.75,15.64,79,0,6.68,MG,1627422225
Hong Kong,22.2855,114.1577,31.09,91,98,0.89,HK,1627422022
Rincon,32.296,-81.2354,33.1,73,75,4.63,US,1627422225
Hegang,47.4,130.3667,25.34,72,5,1.0,CN,1627422225
Winnemucca,40.973,-117.7357,35.03,18,1,5.14,US,1627422226
Abonnema,4.7084,6.7931,24.02,83,99,2.06,NG,1627422226
Touros,-5.1989,-35.4608,25.5,82,0,5.96,BR,1627422186
Qaanaaq,77.484,-69.3632,5.12,99,100,1.91,GL,1627422226
Chokurdakh,70.6333,147.9167,3.35,77,100,5.3,RU,1627422227
Durban,-29.8579,31.0292,15.57,70,1,0.89,ZA,1627422227
Gilbués,-9.8317,-45.3439,25.46,31,9,0.15,BR,1627422227
Salina Cruz,16.1667,-95.2,32.63,55,100,4.42,MX,1627422227
Upernavik,72.7868,-56.1549,9.79,73,100,7.82,GL,1627422228
Praia,14.9215,-23.5087,25.3,69,40,5.66,CV,1627422228
Honiara,-9.4333,159.95,27.63,79,73,3.67,SB,1627422191
Caravelas,-17.7125,-39.2481,22.76,83,3,4.41,BR,1627422228
Buluang,13.3068,123.3425,27.35,83,100,5.58,PH,1627422229
Aykhal,66.0,111.5,25.23,48,22,1.49,RU,1627421970
Peniche,39.3558,-9.3811,19.85,88,0,8.22,PT,1627422057
Comodoro Rivadavia,-45.8667,-67.5,8.92,76,0,0.0,AR,1627422157
Kahului,20.8947,-156.47,30.41,77,20,12.35,US,1627422000
Ostrovnoy,68.0531,39.5131,7.96,87,56,2.11,RU,1627422228
Darłowo,54.421,16.4107,21.08,86,60,3.31,PL,1627422229
Danielskuil,-28.1887,23.5395,7.23,42,0,5.11,ZA,1627422230
Carnarvon,-24.8667,113.6333,16.04,53,90,0.0,AU,1627422230
Osečina,44.3731,19.6014,25.81,49,20,1.99,RS,1627422230
Ponta Delgada,37.7333,-25.6667,20.4,83,20,9.77,PT,1627422231
Gallup,35.5281,-108.7426,28.42,36,75,6.69,US,1627422231
Provideniya,64.3833,-173.3,9.06,93,90,5.0,RU,1627422231
Mzimba,-11.9,33.6,10.22,61,5,3.56,MW,1627422231
Tiznit Province,29.5833,-9.5,21.52,72,0,0.99,MA,1627422232
Iqaluit,63.7506,-68.5145,12.85,50,90,4.02,CA,1627421942
Bengkulu,-3.8004,102.2655,22.72,74,47,2.24,ID,1627422232
Yaan,7.3833,8.5667,22.07,81,20,1.24,NG,1627422233
Karagaylinskiy,54.172,86.5521,10.97,88,18,0.12,RU,1627422233
Coahuayana Viejo,18.7333,-103.6833,31.71,70,62,3.12,MX,1627422233
Karasburg,-28.0167,18.75,11.64,42,0,3.68,NA,1627422233
Grand Gaube,-20.0064,57.6608,20.22,90,69,1.34,MU,1627422234
La Mesa,32.7678,-117.0231,36.23,64,1,2.24,US,1627422126
Charlestown,-32.95,151.6667,17.84,61,54,0.45,AU,1627422234
Avera,33.194,-82.5271,33.73,47,68,0.43,US,1627422234
East London,-33.0153,27.9116,22.84,26,0,4.49,ZA,1627421953
Astoria,46.1879,-123.8313,28.94,74,1,2.24,US,1627422012
Te Anau,-45.4167,167.7167,7.55,88,15,1.32,NZ,1627422235
Furano,43.2818,142.4743,21.93,77,42,2.03,JP,1627422235
Prince George,53.9166,-122.753,22.36,42,40,0.45,CA,1627422132
Launceston,-41.45,147.1667,13.78,81,90,4.02,AU,1627422235
Dunedin,-45.8742,170.5036,9.89,73,11,6.26,NZ,1627422236
São João da Barra,-21.6403,-41.0511,24.05,85,2,8.93,BR,1627421983
Talnakh,69.4865,88.3972,18.51,91,89,3.01,RU,1627422021
Klaksvík,62.2266,-6.589,11.51,96,94,4.95,FO,1627422169
Alugan,12.2188,125.4808,26.82,77,98,3.92,PH,1627422236
Aswān,24.0934,32.907,33.61,19,0,5.14,EG,1627422016
Bilma,18.6853,12.9164,30.66,48,94,5.65,NE,1627422237
Urusha,54.05,122.9,15.44,94,100,1.44,RU,1627422237
Ronneby,56.21,15.276,19.28,100,40,1.54,SE,1627422237
San Juan,-31.5375,-68.5364,10.45,36,4,4.3,AR,1627422046
Kapaa,22.0752,-159.319,29.18,76,40,1.34,US,1627421958
Sibu,2.3,111.8167,25.17,94,40,0.89,MY,1627422238
Tura,25.5198,90.2201,23.53,97,99,1.42,IN,1627422126
Leer,8.3018,30.1418,20.46,97,81,1.36,SS,1627422238
Bambous Virieux,-20.3428,57.7575,20.14,94,75,6.17,MU,1627422179
Port Alfred,-33.5906,26.891,20.13,43,4,5.65,ZA,1627422127
Kazygurt,41.7589,69.3864,25.96,33,0,4.17,KZ,1627422239
Vardø,70.3705,31.1107,8.11,88,85,5.82,NO,1627422239
Kiryat Gat,31.61,34.7642,27.38,74,0,0.8,IL,1627421968
Ucluelet,48.9329,-125.5528,30.05,76,5,1.79,CA,1627422113
Vila Velha,-20.3297,-40.2925,26.09,76,0,6.17,BR,1627422239
Haines Junction,60.7522,-137.5108,14.97,72,92,0.51,CA,1627422239
Tabas,33.5959,56.9244,28.7,16,40,3.42,IR,1627422240
Amapá,1.0,-52.0,23.02,95,11,0.75,BR,1627422240
Alofi,-19.0595,-169.9187,24.94,83,75,2.57,NU,1627422240
Huéscar,37.811,-2.5412,24.41,61,0,1.54,ES,1627422241
Port Elizabeth,-33.918,25.5701,15.16,88,40,6.69,ZA,1627422241
Progreso,21.2833,-89.6667,31.06,69,67,4.53,MX,1627422145
Petropavlovsk-Kamchatskiy,53.0452,158.6483,19.33,73,0,5.0,RU,1627422181
Kaseda-shirakame,31.4167,130.3167,22.57,78,0,1.46,JP,1627422241
Kavaratti,10.5669,72.642,27.46,79,100,9.18,IN,1627422241
Khandyga,62.6667,135.6,16.73,59,61,3.49,RU,1627422242
Duvan,55.695,57.9024,10.21,90,63,1.39,RU,1627422242
Walvis Bay,-22.9575,14.5053,16.53,55,0,1.54,NA,1627422243
Kaeo,-35.1,173.7833,13.51,91,36,2.57,NZ,1627422243
Kulhudhuffushi,6.6221,73.07,27.63,78,78,6.37,MV,1627422243
Sistranda,63.7256,8.834,20.98,89,68,4.68,NO,1627422243
Saskylakh,71.9167,114.0833,13.16,64,18,7.6,RU,1627422178
Cidreira,-30.1811,-50.2056,10.4,49,49,8.5,BR,1627422153
Plácido de Castro,-10.3353,-67.1856,30.34,45,100,1.12,BR,1627422244
Moree,-29.4667,149.85,9.01,81,1,6.17,AU,1627422244
Lompoc,34.6391,-120.4579,32.08,70,40,6.69,US,1627421954
Richards Bay,-28.783,32.0377,17.53,65,6,7.34,ZA,1627422244
Saldanha,-33.0117,17.9442,13.03,76,100,3.93,ZA,1627422245
Altamont,42.2068,-121.7372,16.91,82,90,0.0,US,1627422200
Vila Franca do Campo,37.7167,-25.4333,21.23,86,13,4.04,PT,1627422149
College,64.8569,-147.8028,18.66,65,90,4.12,US,1627422148
Marsá Maţrūḩ,31.3525,27.2453,26.11,78,0,3.09,EG,1627422245
Kirakira,-10.4544,161.9205,27.92,76,50,4.48,SB,1627422245
Bowen,-20.0167,148.2333,11.12,76,51,3.34,AU,1627422246
Roald,62.5833,6.1333,20.65,77,90,4.63,NO,1627422246
Sergeevka,53.88,67.4158,12.36,78,45,3.58,KZ,1627422246
Chui,-33.6971,-53.4616,6.43,66,13,7.29,UY,1627422247
Salalah,17.0151,54.0924,26.05,94,75,3.6,OM,1627422215
Tortolì,39.9256,9.6572,24.99,78,0,5.66,IT,1627422247
Saint Paul Harbor,57.79,-152.4072,14.73,67,20,3.09,US,1627422247
Waingapu,-9.6567,120.2641,23.85,82,29,3.74,ID,1627422247
Kholodnyy,62.7167,147.95,9.28,61,99,4.27,RU,1627421960
Baruun-Urt,46.6806,113.2792,17.47,65,53,1.08,MN,1627422248
Mottola,40.6353,17.0353,29.15,54,0,2.06,IT,1627422248
Saint Anthony,45.0205,-93.218,35.75,55,1,0.45,US,1627422193
Jardim,-21.4803,-56.1381,13.09,62,100,4.33,BR,1627422248
Ibrā’,22.6906,58.5334,31.96,46,100,3.55,OM,1627422249
Havøysund,70.9963,24.6622,8.49,92,20,3.06,NO,1627422249
Asău,46.4333,26.4,21.89,74,54,2.41,RO,1627422249
Aksu,41.1231,80.2644,29.17,32,81,3.31,CN,1627422250
Durango,24.8333,-104.8333,28.15,23,39,6.09,MX,1627421972
Belmonte,-15.8631,-38.8828,23.28,83,18,4.14,BR,1627422250
Viedma,-40.8135,-62.9967,7.09,67,93,9.88,AR,1627422032
Sayaxché,16.5167,-90.1667,33.14,46,24,0.35,GT,1627422250
Bataiporã,-22.2953,-53.2711,13.46,56,100,6.44,BR,1627422251
Pangnirtung,66.1451,-65.7125,9.0,87,90,0.0,CA,1627421967
Carora,10.1755,-70.0827,31.99,41,98,6.02,VE,1627422251
Pokosnoye,55.5258,101.0536,16.5,93,58,1.43,RU,1627422251
San Jerónimo,-11.9472,-75.2829,14.21,51,69,3.66,PE,1627422252
Mildura,-34.2,142.15,12.98,94,40,4.12,AU,1627422252
Øksfjord,70.2396,22.3479,13.04,91,27,1.83,NO,1627422252
Polunochnoye,60.8697,60.4153,6.9,82,100,2.54,RU,1627422252
Husum,54.4858,9.0524,19.39,89,56,6.39,DE,1627422253
Torbay,47.6666,-52.7314,19.6,99,90,6.69,CA,1627422184
Huainan,32.6264,116.9969,24.47,96,100,6.15,CN,1627422253
Falāvarjān,32.5553,51.5097,23.82,21,0,3.11,IR,1627422253
Nikki,9.9401,3.2108,21.43,97,100,2.2,BJ,1627422254
Lavrentiya,65.5833,-171.0,6.82,99,100,4.42,RU,1627422240
Lufilufi,-13.8745,-171.5986,29.88,67,63,5.92,WS,1627422254
Kinsale,51.7075,-8.5306,14.65,77,20,3.6,IE,1627422004
San Quintín,30.4833,-115.95,24.38,66,1,6.0,MX,1627422254
Russell,32.3502,-85.1999,23.84,49,100,2.69,US,1627422254
Kokopo,-4.352,152.2633,26.53,76,27,1.37,PG,1627422255
Bacalar,18.6667,-88.3833,33.17,46,22,3.81,MX,1627422255
Bilibino,68.0546,166.4372,4.94,87,100,1.05,RU,1627422255
Terrace,54.5163,-128.6035,20.79,45,75,3.09,CA,1627422256
Sisimiut,66.9395,-53.6735,12.24,62,100,7.51,GL,1627422256
Mezhdurechensk,53.6942,88.0603,10.38,97,80,0.25,RU,1627422256
Tateyama,34.9833,139.8667,27.79,84,100,7.92,JP,1627422256
Masvingo,-20.0637,30.8277,9.21,85,0,2.41,ZW,1627422257
Killin,33.6123,-91.7412,35.97,53,20,2.68,US,1627422257
Shebunino,46.4339,141.8603,22.96,86,52,1.71,RU,1627422257
Farah,32.5,62.5,29.8,17,69,3.68,AF,1627422258
Dikson,73.5069,80.5464,4.58,100,100,7.31,RU,1627422258
Toora-Khem,52.4675,96.11,14.12,98,71,1.05,RU,1627422258
Teya,60.3778,92.6267,13.96,97,98,2.46,RU,1627422259
Puerto Nariño,-3.7703,-70.3831,26.97,71,77,0.67,CO,1627422259
Alice Springs,-23.7,133.8833,16.75,42,90,1.54,AU,1627422189
Meulaboh,4.1363,96.1285,24.74,90,41,1.82,ID,1627422259
Khovd,48.0056,91.6419,17.88,50,0,1.09,MN,1627421972
Nakamura,32.9833,132.9333,25.91,82,29,1.3,JP,1627422260
Hay River,60.8156,-115.7999,16.99,51,75,3.09,CA,1627422260
Sørland,67.667,12.6934,13.04,88,4,4.88,NO,1627422260
Bereda,43.2686,-7.5406,17.17,99,13,1.39,ES,1627422261
Wencheng,33.0559,113.7978,24.21,94,98,6.72,CN,1627422261
Cayenne,4.9333,-52.3333,28.02,84,75,2.68,GF,1627422261
Padang,-0.9492,100.3543,25.03,88,46,1.42,ID,1627422036
Henties Bay,-22.116,14.2845,14.92,81,0,3.86,NA,1627422219
Izberbash,42.5696,47.8645,21.03,69,100,5.21,RU,1627422261
Yerbogachën,61.2767,108.0108,18.51,69,5,2.19,RU,1627422258
Mamlyutka,54.9375,68.5394,13.97,77,64,3.47,KZ,1627422262
Caborca,30.5838,-111.101,34.72,29,23,3.22,MX,1627422262
Sayville,40.7359,-73.0821,31.08,60,40,0.89,US,1627422262
Grindavik,63.8424,-22.4338,13.97,87,0,8.75,IS,1627422263
Carauari,-4.8828,-66.8958,29.61,56,40,0.5,BR,1627422263
Malé,4.1748,73.5089,26.97,94,75,5.66,MV,1627422263
Molochnoye,59.2917,39.6787,12.73,88,5,0.32,RU,1627422264
Teignmouth,50.5477,-3.4964,17.31,90,19,5.43,GB,1627422264
Samaná,19.2056,-69.3369,30.12,74,20,2.06,DO,1627422264
Najrān,17.4924,44.1277,29.36,45,91,3.3,SA,1627422264
Plettenberg Bay,-34.0527,23.3716,13.88,82,4,6.13,ZA,1627422265
Moose Factory,51.2585,-80.6094,19.0,63,20,4.63,CA,1627422051
Vuktyl,63.8567,57.3094,6.49,97,100,4.01,RU,1627422265
Prince Rupert,54.3161,-130.3201,17.05,71,90,3.09,CA,1627422265
Katobu,-4.9408,122.5276,23.03,95,64,1.3,ID,1627422265
Talcahuano,-36.7167,-73.1167,13.82,54,0,4.63,CL,1627422266
Tchibanga,-2.85,11.0333,20.45,92,82,2.44,GA,1627422266
Banjar,-8.19,114.9675,23.92,82,35,2.51,ID,1627422266
Hvide Sande,56.0045,8.1294,17.78,90,70,5.13,DK,1627422266
Hammerfest,70.6634,23.6821,8.25,100,90,2.57,NO,1627421967
Riachão do Jacuípe,-11.8069,-39.3856,21.15,89,41,3.19,BR,1627422267
Aleksandrov Gay,50.147,48.5704,22.09,43,53,3.03,RU,1627422267
Lázaro Cárdenas,17.9583,-102.2,29.85,70,51,3.37,MX,1627422267
São Filipe,14.8961,-24.4956,23.57,82,17,2.65,CV,1627422268
Misratah,32.3754,15.0925,26.33,68,0,5.11,LY,1627422268
Ploemeur,47.7333,-3.4333,17.68,90,0,2.06,FR,1627422181
Kieta,-6.2167,155.6333,27.38,78,98,0.88,PG,1627422268
Puerto del Rosario,28.5004,-13.8627,22.86,73,75,7.72,ES,1627422269
Departamento de Maldonado,-34.6667,-54.9167,9.01,65,40,9.74,UY,1627422269
Yanai,33.9667,132.1167,26.46,82,46,0.99,JP,1627422269
Norman Wells,65.282,-126.8329,21.02,46,75,2.06,CA,1627422182
Maragogi,-9.0122,-35.2225,23.5,86,27,2.94,BR,1627422269
Liliongan,7.3628,124.7928,22.85,94,79,0.66,PH,1627422270
Necochea,-38.5473,-58.7368,8.35,69,49,10.61,AR,1627422193
Kashgar,39.4547,75.9797,29.56,32,75,4.0,CN,1627422270
Kandrian,-6.2167,149.55,26.27,84,11,0.99,PG,1627422270
Alexandria,31.2156,29.9553,26.98,74,0,3.6,EG,1627422100
Basco,20.4487,121.9702,28.55,86,100,10.78,PH,1627422271
Levice,48.2156,18.6071,22.28,75,66,2.88,SK,1627422133
Sjøvegan,68.8726,17.8474,15.41,92,4,0.52,NO,1627422271
Kaitangata,-46.2817,169.8464,9.4,68,78,1.76,NZ,1627422271
Mariinsk,56.2139,87.7472,9.82,93,4,1.29,RU,1627422271
Garoowe,8.4054,48.4845,24.24,50,100,10.49,SO,1627422272
Batagay,67.6333,134.6333,10.06,58,1,4.53,RU,1627422248
Bredy,52.4153,60.3411,15.24,56,38,3.51,RU,1627422272
Fuzhou,26.0614,119.3061,28.94,92,74,0.82,CN,1627422273
Pevek,69.7008,170.3133,1.15,94,100,4.65,RU,1627421996
Alta Floresta,-9.8756,-56.0861,28.09,31,39,1.12,BR,1627422273
Quatre Cocos,-20.2078,57.7625,20.06,86,94,6.75,MU,1627422273
Ust'-Ilimsk,58.0006,102.6619,17.92,63,1,1.1,RU,1627422273
Mexico,15.0646,120.7198,28.04,88,100,3.03,PH,1627422018
La Asuncion,11.0333,-63.8628,29.85,70,4,7.2,VE,1627422274
Mahébourg,-20.4081,57.7,20.16,94,75,6.17,MU,1627422168
Honningsvåg,70.9821,25.9704,8.21,89,12,3.81,NO,1627422274
Bat Khela,34.6167,71.9714,28.56,80,91,1.86,PK,1627422274
Codrington,-38.2667,141.9667,9.21,79,39,9.1,AU,1627422014
Naze,28.3667,129.4833,25.51,87,100,5.29,JP,1627422275
Kaduqli,11.0167,29.7167,22.1,85,80,2.41,SD,1627422275
Margate,51.3813,1.3862,17.39,86,22,0.45,GB,1627422187
Nantucket,41.2835,-70.0995,29.23,56,1,4.63,US,1627422173
Krasne,49.9145,24.6134,19.64,90,57,2.64,UA,1627422276
Roseburg,43.2165,-123.3417,29.79,35,1,1.54,US,1627422276
Tuktoyaktuk,69.4541,-133.0374,11.0,76,90,2.57,CA,1627422163
Hasaki,35.7333,140.8333,25.22,83,70,7.3,JP,1627422276
Poum,-20.2333,164.0167,21.19,63,2,4.79,NC,1627422277
Port Macquarie,-31.4333,152.9167,3.98,63,7,3.7,AU,1627422277
Parit Raja,1.8681,103.1124,25.17,87,85,0.72,MY,1627422277
Fare,-16.7,-151.0167,25.71,72,41,3.75,PF,1627422277
Ozernovskiy,51.5,156.5167,12.96,98,100,2.15,RU,1627422278
Athenry,53.2964,-8.7431,14.8,91,19,2.38,IE,1627422278
Williams Lake,52.1415,-122.1445,24.76,28,20,0.45,CA,1627422278
Sola,-13.8833,167.55,27.37,78,75,5.14,VU,1627422278
Sohag,26.557,31.6948,31.16,23,0,4.33,EG,1627422279
Baijiantan,45.6333,85.1833,27.55,26,18,4.81,CN,1627422279
Almeirim,-1.5233,-52.5817,28.09,59,59,1.27,BR,1627422279
Nemuro,43.3236,145.575,17.94,95,99,3.42,JP,1627422053
São Luís de Montes Belos,-16.525,-50.3722,23.81,32,4,1.79,BR,1627422280
Assiut,27.181,31.1837,29.1,23,0,4.37,EG,1627422280
Yar-Sale,66.8333,70.8333,8.24,69,99,4.32,RU,1627422049
Kurgunta,17.2,77.35,22.71,86,100,5.97,IN,1627422281
Xingtai,37.0631,114.4942,22.77,90,100,4.66,CN,1627422281
Elk Point,42.6833,-96.6836,36.58,31,13,4.6,US,1627422281
Nouadhibou,20.931,-17.0347,20.99,83,4,8.23,MR,1627422281
Emba,48.8264,58.1442,21.08,37,83,6.15,KZ,1627422282
Sobolevo,54.4299,31.8996,17.36,94,100,2.16,RU,1627422282
Umluj,25.0213,37.2685,30.78,65,77,3.79,SA,1627422282
Saint George,37.1041,-113.5841,36.55,29,1,2.68,US,1627422241
Forsytheganj,52.6333,29.7333,18.44,93,100,1.31,BY,1627422258
Palmer,42.1584,-72.3287,31.38,51,27,2.24,US,1627422283
Tacuarembó,-31.7333,-55.9833,5.69,53,25,4.69,UY,1627422283
Barabinsk,55.3571,78.357,14.27,63,100,2.54,RU,1627422283
Zhigansk,66.7697,123.3711,11.57,66,17,7.11,RU,1627422283
Yeppoon,-23.1333,150.7333,9.88,74,93,0.21,AU,1627422019
Aksay,47.26,39.87,23.47,45,20,3.58,RU,1627422284
Mersing,2.4312,103.8405,24.95,94,80,2.57,MY,1627422278
Half Moon Bay,37.4636,-122.4286,36.62,62,20,4.63,US,1627422226
Churapcha,62.0025,132.4325,18.28,47,10,4.67,RU,1627422284
Mandapam,9.2833,79.1167,28.96,69,82,7.74,IN,1627422285
Staryy Nadym,65.6118,72.6842,11.52,57,89,6.12,RU,1627422285
Laas,46.6166,10.7002,18.49,95,95,1.72,IT,1627422235
Ayaviri,-14.8864,-70.5889,13.41,24,26,5.08,PE,1627422285
Yulara,-25.2406,130.9889,15.91,51,90,2.57,AU,1627422286
Barra de Tecoanapa,16.5167,-98.75,30.25,61,77,3.87,MX,1627422286
Athabasca,54.7169,-113.2854,24.23,17,0,7.07,CA,1627422286
Marystown,47.1666,-55.1483,18.81,100,100,0.89,CA,1627422286
Ekhabi,53.5102,142.9671,20.82,87,98,1.99,RU,1627422287
Bonavista,48.6499,-53.1147,20.0,96,100,6.21,CA,1627422287
Nishihara,26.1842,127.7558,26.81,93,75,3.09,JP,1627422287
Gigmoto,13.7796,124.39,27.67,83,100,6.52,PH,1627422288
Seoul,37.5683,126.9778,27.76,78,0,3.09,KR,1627422288
Tamandaré,-8.7597,-35.1047,23.75,86,15,3.04,BR,1627422042
Pleasanton,37.6624,-121.8747,36.3,27,1,1.34,US,1627422124
Ternate,0.8,127.4,27.25,81,60,3.66,ID,1627422288
Huarmey,-10.0681,-78.1522,20.06,77,18,4.91,PE,1627422289
Kuito,-12.3833,16.9333,11.7,33,100,1.12,AO,1627422289
Daugavpils,55.8833,26.5333,18.09,98,100,2.38,LV,1627422289
Culaman,5.9603,125.6586,27.38,81,76,3.87,PH,1627422289
Ljungby,56.8332,13.9408,17.11,93,79,1.02,SE,1627422290
Pascagoula,30.3658,-88.5561,34.47,59,1,3.6,US,1627422105
Sangmélima,2.9333,11.9833,19.28,95,81,1.82,CM,1627422290
Donmatías,6.4857,-75.395,18.57,96,100,0.83,CO,1627422290
Oktyabr'skiy,54.4815,53.471,11.43,81,3,1.81,RU,1627422291
Rocha,-34.4833,-54.3333,6.26,70,21,8.15,UY,1627422291
Catherinas Lust,6.4,-57.6,26.75,80,4,3.59,GY,1627422291
Baykit,61.67,96.37,18.51,89,100,0.97,RU,1627422291
Cockburn Town,21.4612,-71.1419,29.98,66,40,5.14,TC,1627422292
Jumla,29.2747,82.1838,18.1,96,95,0.77,NP,1627422292
Muisne,0.6,-80.0333,28.06,81,87,3.36,EC,1627422292
Orán,-23.1322,-64.326,14.68,44,83,1.6,AR,1627422293
Kayerkan,69.3497,87.7602,16.6,89,68,5.69,RU,1627422293
The Valley,18.217,-63.0578,29.92,70,40,6.17,AI,1627422195
Raton,36.9034,-104.4391,29.48,72,90,4.21,US,1627422293
Raja,8.4596,25.678,20.81,97,93,1.58,SS,1627422294
Gararu,-9.9675,-37.0833,21.49,94,21,2.7,BR,1627422294
Ankazoabo,-22.2833,44.5167,14.81,56,0,3.44,MG,1627422294
Alto Araguaia,-17.3147,-53.2153,26.64,34,45,4.97,BR,1627422295
Araouane,18.9048,-3.5265,37.45,21,6,5.06,ML,1627422295
Dhidhdhoo,6.8833,73.1,27.79,77,83,6.71,MV,1627422220
Uíge,-7.6087,15.0613,16.95,32,42,1.35,AO,1627422295
Makakilo City,21.3469,-158.0858,30.18,51,1,5.14,US,1627422296
Port Hawkesbury,45.6169,-61.3485,23.1,81,40,1.79,CA,1627422296
Saint-François,46.4154,3.9054,17.88,100,75,1.03,FR,1627422296
Thio,-21.6167,166.2167,17.98,60,0,5.27,NC,1627422297
Fortuna,40.5982,-124.1573,30.1,96,75,0.0,US,1627422297
Beringovskiy,63.05,179.3167,9.32,96,100,1.92,RU,1627422297
‘Āhuimanu,21.4447,-157.8378,30.84,60,40,6.17,US,1627422298
Mitchell,43.7094,-98.0298,35.99,46,1,3.09,US,1627422052
Chimoré,-16.9833,-65.1333,19.04,57,100,0.82,BO,1627422298
Khor,47.8861,134.9464,28.22,57,62,1.55,RU,1627422298
Sierra Vista,31.5545,-110.3037,33.15,42,75,7.2,US,1627422067
Mukacheve,48.4392,22.7178,25.46,67,33,1.83,UA,1627422299
Sitka,57.0531,-135.33,14.94,77,75,0.0,US,1627422299
Ayan,56.45,138.1667,21.62,67,83,3.48,RU,1627422299
Wajid,3.8093,43.2471,23.29,64,97,9.53,SO,1627422299
Colonia Carlos Antonio López,-26.4,-54.7667,9.57,40,1,2.42,PY,1627422300
Craigieburn,-37.6,144.95,14.11,77,75,8.75,AU,1627422300
Flin Flon,54.7682,-101.865,26.91,41,75,5.14,CA,1627422212
Shingū,33.7333,135.9833,26.06,68,94,1.66,JP,1627422300
Lesnoye,58.2841,35.5158,15.23,85,59,2.18,RU,1627422301
Yangi Marg`ilon,40.4272,71.7189,28.4,36,1,2.06,UZ,1627422219
Marzuq,14.4,46.4667,24.53,70,44,3.03,YE,1627422301
Isangel,-19.55,169.2667,21.06,83,20,0.0,VU,1627422156
Laguna,38.421,-121.4238,38.92,19,1,1.34,US,1627422301
Port Hardy,50.6996,-127.4199,16.1,82,20,3.09,CA,1627422302
Lorengau,-2.0226,147.2712,28.75,73,5,2.14,PG,1627422303
Mogok,22.9167,96.5,18.42,97,100,1.03,MM,1627422303
Morococha,-11.5997,-76.1411,5.08,67,81,1.83,PE,1627422303
Bara,10.3744,10.7288,22.44,92,100,2.24,NG,1627422304
Gore,-46.1028,168.9436,9.01,90,43,0.33,NZ,1627422304
Mamit,23.9333,92.4833,20.84,100,98,1.02,IN,1627422304
Makar'yev,57.8797,43.8069,12.67,70,20,1.44,RU,1627422305
Lake Charles,30.2131,-93.2044,35.99,60,40,4.12,US,1627422305
Mayumba,-3.432,10.6554,22.22,93,89,2.11,GA,1627422305
Paamiut,61.994,-49.6678,7.35,76,9,6.84,GL,1627422305
Sioux Lookout,50.1001,-91.917,26.21,38,75,2.57,CA,1627422307
Bānswāra,23.55,74.45,24.89,91,100,7.04,IN,1627422307
Agadez,19.75,10.25,28.5,50,76,6.01,NE,1627422308
Porbandar,21.6422,69.6093,27.67,85,100,10.75,IN,1627422308
Pochutla,15.7432,-96.4661,30.47,66,99,1.67,MX,1627422308
Mareeba,-17.0,145.4333,18.4,90,12,0.69,AU,1627422308
Muli,2.9167,73.5667,27.15,78,98,3.69,MV,1627422309
Mount Gambier,-37.8333,140.7667,8.95,81,75,8.75,AU,1627422025
Tual,-5.6667,132.75,27.04,83,78,7.15,ID,1627422309
Azanka,58.0401,64.7893,10.26,86,63,2.3,RU,1627422309
Timóteo,-19.5825,-42.6444,19.48,57,6,1.22,BR,1627422310
Tadine,-21.55,167.8833,21.24,54,59,6.56,NC,1627422269
Safranbolu,41.2508,32.6942,18.31,74,0,0.86,TR,1627422310
Kerrville,30.0474,-99.1403,35.83,35,1,0.45,US,1627422310
Pedernales,18.0384,-71.744,29.56,67,72,1.34,DO,1627422310
Havre-St-Pierre,50.2334,-63.5986,18.2,82,20,7.2,CA,1627422192
La Cruz,23.9167,-106.9,33.59,69,79,4.92,MX,1627422311
Kōriyama,37.4,140.3833,25.76,94,40,1.54,JP,1627422311
Kamariótissa,40.4833,25.4667,26.03,73,0,4.33,GR,1627422311
Vaitape,-16.5167,-151.75,25.62,74,26,3.46,PF,1627422312
Mumford,5.2618,-0.759,24.06,85,99,5.05,GH,1627422278
Ontario,34.0633,-117.6509,40.97,42,20,3.58,US,1627422251
Zonguldak,41.25,31.8333,16.74,86,0,1.89,TR,1627422312
Tūkrah,32.5341,20.5791,25.19,77,0,6.16,LY,1627422313
Berlevåg,70.8578,29.0864,8.18,89,78,3.58,NO,1627422313
Inverell,-29.7833,151.1167,9.81,87,0,1.34,AU,1627422313
Bodden Town,19.2833,-81.25,27.78,86,75,1.54,KY,1627422298
Buala,-8.145,159.5921,27.48,80,94,4.66,SB,1627422314
Tire,38.0888,27.7351,29.0,46,0,3.48,TR,1627422314
Gao,16.6362,1.637,31.57,49,74,4.61,ML,1627422300
Bembèrèkè,10.2283,2.6634,21.01,96,100,2.33,BJ,1627422314
Farmington,36.7281,-108.2187,31.17,40,90,8.75,US,1627422211
Uinskoye,56.8817,56.5813,9.82,73,93,1.76,RU,1627422315
Matara,5.9485,80.5353,25.91,87,99,4.98,LK,1627422148
Hanzhong,33.0728,107.0303,19.9,82,30,0.55,CN,1627422315
Tuatapere,-46.1333,167.6833,9.34,87,8,1.26,NZ,1627422271
San Lorenzo,-25.3333,-57.5333,14.52,29,0,7.72,PY,1627422176
Fort Nelson,58.8053,-122.7002,18.77,63,75,2.57,CA,1627422066
Cooma,-36.2333,149.1333,9.87,57,47,3.09,AU,1627422316
Río Gallegos,-51.6226,-69.2181,6.03,81,90,4.63,AR,1627422316
Sulangan,11.1373,123.7228,28.8,72,93,6.43,PH,1627422316
Buin,-33.7333,-70.75,18.18,40,0,1.49,CL,1627422316
Kendari,-3.945,122.4989,22.68,95,46,1.26,ID,1627422266
Roebourne,-20.7833,117.1333,20.25,78,3,2.35,AU,1627422317
Okha,53.5739,142.9478,20.08,87,96,2.09,RU,1627422317
Royan,45.6285,-1.0281,18.99,83,91,3.62,FR,1627422317
Gushikawa,26.3544,127.8686,26.77,83,90,3.6,JP,1627422318
San Patricio,28.017,-97.5169,36.05,43,86,5.24,US,1627422318
Chipinge,-20.1883,32.6236,8.09,90,0,1.8,ZW,1627422318
Christchurch,-43.5333,172.6333,9.71,87,3,1.03,NZ,1627422029
Palembang,-2.9167,104.7458,21.0,95,70,1.96,ID,1627422318
Ferme-Neuve,46.7001,-75.4493,17.88,50,63,2.88,CA,1627422319
Arlit,18.7369,7.3853,29.17,50,95,6.59,NE,1627422253
Tambilil,5.9622,124.6697,26.44,86,90,0.83,PH,1627422319
Olafsvik,64.8945,-23.7142,10.91,86,99,6.04,IS,1627422319
San Rafael,-34.6177,-68.3301,7.52,27,17,2.58,AR,1627422046
Krasnogorsk,55.8225,37.3181,22.19,68,0,5.0,RU,1627422320
Hirara,24.8,125.2833,27.15,94,75,2.57,JP,1627422320
Lüderitz,-26.6481,15.1594,13.52,74,0,4.61,NA,1627422320
Tiarei,-17.5333,-149.3333,28.01,73,77,4.48,PF,1627422264
Villa María,-32.4075,-63.2402,9.95,28,18,5.85,AR,1627422321
Semeykino,48.3264,39.5337,20.86,61,43,3.55,UA,1627422321
Payo,-3.7508,103.6372,19.4,85,38,1.06,ID,1627422322
Imbituba,-28.24,-48.6703,14.34,73,100,7.74,BR,1627422322
Altus,34.6381,-99.334,38.31,29,1,2.57,US,1627422322
Balkhash,46.844,74.9804,20.48,38,0,7.44,KZ,1627422323
Mandalgovi,45.7625,106.2708,18.29,65,100,1.33,MN,1627422323
Broome,42.2506,-75.833,21.43,96,90,0.89,US,1627422323
Katsuura,35.1333,140.3,27.84,84,100,7.7,JP,1627422324
Harper,4.375,-7.7169,24.81,77,100,3.83,LR,1627422258
Fulton,33.7668,-84.4499,32.85,70,20,0.45,US,1627422324
Mokhsogollokh,61.4681,128.9203,16.38,62,9,2.54,RU,1627422324
Bariloche,-41.1456,-71.3082,9.86,25,0,2.06,AR,1627422116
Nabire,-3.3667,135.4833,25.12,86,100,1.32,ID,1627422308
Tynda,55.1667,124.7167,16.45,85,100,0.33,RU,1627422325
Xingcheng,40.6167,120.7167,23.57,75,99,1.37,CN,1627422325
Léo,11.1,-2.1,23.16,84,96,2.4,BF,1627422325
Orange Walk District,17.8333,-88.8333,31.92,45,28,4.02,BZ,1627422326
Gimli,50.6336,-96.9907,31.91,57,0,3.6,CA,1627422326
Bay-Khaak,51.1667,94.5,15.24,94,99,1.29,RU,1627422327
Neiafu,-18.65,-173.9833,25.38,78,75,2.06,TO,1627422327
Alice Town,25.7167,-79.3,29.64,68,0,4.77,BS,1627422327
Lubyany,56.0378,51.4,13.8,78,29,2.18,RU,1627422328
Varhaug,58.6147,5.6457,17.75,90,79,5.03,NO,1627422328
Langxiang,46.95,128.8833,23.4,83,35,0.87,CN,1627422328
Ovalle,-30.5983,-71.2003,16.78,31,0,1.57,CL,1627422195
Bom Jesus,-9.0744,-44.3586,26.66,34,32,1.64,BR,1627422328
Mozarlândia,-14.7447,-50.5706,26.87,27,10,0.92,BR,1627422329
Hofn,64.2539,-15.2082,12.3,83,93,2.0,IS,1627422183
Kitahiroshima,42.9758,141.5672,27.0,90,20,2.51,JP,1627422329
Kumul,42.8,93.45,29.54,18,1,3.37,CN,1627422330
Bafoussam,5.4737,10.4179,14.25,96,51,1.72,CM,1627422330
Luanda,-8.8368,13.2343,22.0,88,40,3.09,AO,1627422330
Batemans Bay,-35.7167,150.1833,15.11,53,78,2.96,AU,1627422331
Renqiu,38.6989,116.0936,23.22,96,99,2.44,CN,1627422331
Avon Lake,41.5053,-82.0282,30.35,59,75,0.45,US,1627422331
Raposa,-6.5167,-44.1833,27.0,35,7,1.75,BR,1627422331
Chapais,49.7834,-74.8492,15.88,42,100,3.32,CA,1627422332
Humberto de Campos,-2.5983,-43.4611,25.72,77,98,2.41,BR,1627422332
Usatove,46.533,30.6596,23.12,73,0,0.0,UA,1627422332
Nuuk,64.1835,-51.7216,13.34,47,40,8.23,GL,1627422038
Natal,-5.795,-35.2094,25.36,88,20,3.6,BR,1627422333
Dubrovytsya,51.5744,26.565,18.18,97,97,3.6,UA,1627422333
Poronaysk,49.2167,143.1167,18.35,91,97,1.51,RU,1627422334
Sinnamary,5.3833,-52.95,26.33,80,11,4.09,GF,1627422255
Saravan,39.7196,45.6483,22.36,73,47,3.79,AM,1627422334
Balikpapan,-1.2675,116.8289,24.94,85,95,2.97,ID,1627422334
Burnie,-41.0667,145.9167,13.84,90,100,12.7,AU,1627422256
Lagunas,-5.2269,-75.6753,29.76,66,94,1.08,PE,1627422335
Camargo,27.6667,-105.1667,34.53,14,1,3.16,MX,1627422201
Ussel,45.55,2.3167,10.96,98,61,0.63,FR,1627422335
Kuytun,54.3419,101.5036,14.46,79,0,0.56,RU,1627422335
Trairi,-3.2778,-39.2689,25.36,79,21,4.83,BR,1627422104
Dudinka,69.4058,86.1778,12.9,95,92,3.76,RU,1627422336
Moerai,-22.4333,-151.3333,23.38,72,89,4.88,PF,1627422292
Chippewa Falls,44.9369,-91.3929,31.09,65,1,3.6,US,1627422302
Samarai,-10.6167,150.6667,25.98,86,80,5.93,PG,1627422336
Gizo Government Station,-8.103,156.8419,27.96,76,84,3.83,SB,1627422336
Kloulklubed,7.0419,134.2556,28.67,74,85,4.51,PW,1627422337
Sterling,39.0062,-77.4286,35.5,37,20,0.45,US,1627422097
Itaituba,-4.2761,-55.9836,34.09,52,20,0.0,BR,1627422337
Ahipara,-35.1667,173.1667,14.51,83,44,3.15,NZ,1627422338
Nanortalik,60.1432,-45.2371,8.14,76,55,2.02,GL,1627422338
St. George's,12.0564,-61.7485,29.82,70,20,6.17,GD,1627422338
Anadyr,64.75,177.4833,9.28,100,90,6.71,RU,1627422338
